{
    "list": [{
        "id": 1,
        "src": "img/00149.jpg",
        "date": "2013-08-05",
        "place": "rue de l'espérance, Paris 13",
        "arrond": "13",
        "author": "",
        "title": "",
        "text": "",
        "genre": "",
        "lat": 48.8272310,
        "lng": 2.3487741,
        "tags": [
            "femme", "woman", "window", "camera", "appareil photo"
        ]
    }, {
        "id": 2,
        "src": "img/00151.jpg",
        "date": "2013-08-04",
        "place": "rue des chantiers, Paris 5",
        "arrond": "5",
        "author": "",
        "title": "",
        "text": "",
        "genre": "collage",
        "lat": 48.8491882,
        "lng": 2.3541926,
        "tags": [
            "machine", "science fiction"
        ]
    }, {
        "id": 3,
        "src": "img/00152.jpg",
        "date": "2010-08-25",
        "place": "rue Lacépdèe, Paris 5",
        "arrond": "5",
        "author": "",
        "title": "",
        "text": "",
        "genre": "peinture",
        "lat": 48.8438007,
        "lng": 2.3523009,
        "tags": [
            "homme", "visage", "barbe", "mains", "nez rouge", "marin", "rayures"
        ]
    }, {
        "id": 4,
        "src": "img/00174.jpg",
        "date": "2010-08-28",
        "place": "rue Ortolan, Paris 5",
        "arrond": "5",
        "author": "",
        "title": "",
        "text": "",
        "genre": "collage",
        "lat": 48.843166,
        "lng": 2.349654,
        "tags": [
            "femme", "coeur", "bulles", "tête", "tete"
        ]
    }, {
        "id": 5,
        "src": "img/00214.jpg",
        "date": "2011-08-25",
        "place": "99 rue de Charonne, Paris 11",
        "arrond": "11",
        "author": "",
        "title": "",
        "text": "",
        "genre": "collage",
        "lat": 48.854371,
        "lng": 2.383584,
        "tags": [
            "enfant", "tag", "anar", "triangle"
        ]
    }, {
        "id": 6,
        "src": "img/00215.jpg",
        "date": "2013-08-03",
        "place": "Paris 11",
        "arrond": "11",
        "author": "",
        "title": "",
        "text": "",
        "genre": "collage",
        "lat": 48.854371,
        "lng": 2.383584,
        "tags": [
            "pikachu", "lunettes", "je est un autre"
        ]
    }, {
        "id": 7,
        "src": "img/00223.jpg",
        "date": "2013-08-03",
        "place": "59 rue Popincourt, Paris 11",
        "arrond": "11",
        "author": "",
        "title": "",
        "text": "",
        "genre": "pochoir",
        "lat": 48.860419,
        "lng": 2.375427,
        "tags": [
            "génie", "chapeau melon", "costume", "rouge"
        ]
    }, {
        "id": 8,
        "src": "img/00243.jpg",
        "date": "2013-08-03",
        "place": "rue de la Folie Méricourt, Paris 11",
        "arrond": "11",
        "author": "Bust ?",
        "title": "",
        "text": "",
        "genre": "peinture",
        "lat": 48.864252,
        "lng": 2.371565,
        "tags": [
            "enfant", "visage", "rouge", "bust"
        ]
    }, {
        "id": 9,
        "src": "img/00244.jpg",
        "date": "2013-08-03",
        "place": "rue de la Folie Méricourt, Paris 11",
        "arrond": "11",
        "author": "",
        "title": "",
        "text": "",
        "genre": "peinture",
        "lat": 48.864252,
        "lng": 2.371565,
        "tags": [
            "enfant", "visage", "shiva", "bras", "boeuf"
        ]
    }, {
        "id": 10,
        "src": "img/00444.jpg",
        "date": "2013-08-09",
        "place": "rue Jean Lantier, Paris 1",
        "arrond": "1",
        "author": "yarps",
        "title": "",
        "text": "kiss kiss bang bang",
        "genre": "collage, peinture",
        "lat": 48.858595,
        "lng": 2.346180,
        "tags": [
            "femme", "visage", "chapeau", "fesses", "shit"
        ]
    }, {
        "id": 11,
        "src": "img/00445.jpg",
        "date": "2013-08-09",
        "place": "rue Jean Lantier, Paris 1",
        "arrond": "1",
        "author": "yarps",
        "title": "",
        "text": "topless metroroll corp",
        "genre": "collagen peinture",
        "lat": 48.858588,
        "lng": 2.346234,
        "tags": [
            "femme", "visage", "blonde", "seins", "vinyl"
        ]
    }, {
        "id": 12,
        "src": "img/1415.jpg",
        "date": "2014-05-28",
        "place": "9 rue de Candie, Paris 11",
        "arrond": "11",
        "author": "mimi the clown",
        "title": "",
        "text": "",
        "genre": "pochoir",
        "lat": 48.851292,
        "lng": 2.380084,
        "tags": [
            "clown", "hache", "nez rouge"
        ]
    }, {
        "id": 13,
        "src": "img/1412.jpg",
        "date": "2014-05-28",
        "place": "6 passage rauch, Paris 11",
        "arrond": "11",
        "author": "",
        "title": "",
        "text": "",
        "genre": "collage",
        "lat": 48.854188,
        "lng": 2.379690,
        "tags": [
            "ballon", "femme", "épée", "masque"
        ]
    }]
}